{
    "id": 5178747,
    "resource_state": 2,
    "name": "Stout: Towers to Towers reroute",
    "activity_type": "Ride",
    "distance": 3765,
    "average_grade": 4.3,
    "maximum_grade": 36.2,
    "elevation_high": 1980.6,
    "elevation_low": 1790.6,
    "start_latlng": [
        40.5393,
        -105.172687
    ],
    "end_latlng": [
        40.542362,
        -105.181223
    ],
    "start_latitude": 40.5393,
    "start_longitude": -105.172687,
    "end_latitude": 40.542362,
    "end_longitude": -105.181223,
    "climb_category": 2,
    "city": "Fort Collins",
    "state": "CO",
    "country": "United States",
    "private": false,
    "hazardous": false,
    "starred": true,
    "starred_date": "2018-06-24T00:48:37Z"
}
{
    "id": 6022282,
    "resource_state": 2,
    "name": "Full Sawmill climb to Lower Mill Creek descent down to West Valley",
    "activity_type": "Ride",
    "distance": 6402.8,
    "average_grade": 0.6,
    "maximum_grade": 49.8,
    "elevation_high": 1912.9,
    "elevation_low": 1671.5,
    "start_latlng": [
        40.548207,
        -105.167149
    ],
    "end_latlng": [
        40.562308,
        -105.173969
    ],
    "start_latitude": 40.548207,
    "start_longitude": -105.167149,
    "end_latitude": 40.562308,
    "end_longitude": -105.173969,
    "climb_category": 0,
    "city": "Fort Collins",
    "state": "CO",
    "country": "United States",
    "private": false,
    "hazardous": false,
    "starred": true,
    "pr_time": 2271,
    "athlete_pr_effort": {
        "id": 6981120217,
        "elapsed_time": 2271,
        "distance": 6446.9,
        "start_date": "2015-05-02T19:25:32Z",
        "start_date_local": "2015-05-02T13:25:32Z",
        "is_kom": false
    },
    "starred_date": "2018-06-03T22:25:00Z"
}
{
    "id": 17415917,
    "resource_state": 2,
    "name": "Tooth or Consequences 2018 - Entire Course",
    "activity_type": "Ride",
    "distance": 38202.3,
    "average_grade": 0,
    "maximum_grade": 42,
    "elevation_high": 2179.8,
    "elevation_low": 1663.3,
    "start_latlng": [
        40.588328,
        -105.184007
    ],
    "end_latlng": [
        40.588336,
        -105.184162
    ],
    "start_latitude": 40.588328,
    "start_longitude": -105.184007,
    "end_latitude": 40.588336,
    "end_longitude": -105.184162,
    "climb_category": 0,
    "city": "Fort Collins",
    "state": "Colorado",
    "country": "United States",
    "private": false,
    "hazardous": false,
    "starred": true,
    "starred_date": "2018-06-04T16:25:11Z"
}
{
    "id": 17674311,
    "resource_state": 2,
    "name": "ToC (2018) - Stage 2",
    "activity_type": "Ride",
    "distance": 4626.8,
    "average_grade": -9,
    "maximum_grade": 7,
    "elevation_high": 2125,
    "elevation_low": 1707.5,
    "start_latlng": [
        40.568372,
        -105.201285
    ],
    "end_latlng": [
        40.562301,
        -105.173714
    ],
    "start_latitude": 40.568372,
    "start_longitude": -105.201285,
    "end_latitude": 40.562301,
    "end_longitude": -105.173714,
    "climb_category": 0,
    "city": "Fort Collins",
    "state": "Colorado",
    "country": "United States",
    "private": false,
    "hazardous": false,
    "starred": true,
    "pr_time": 951,
    "athlete_pr_effort": {
        "id": 39364147125,
        "elapsed_time": 951,
        "distance": 4593.7,
        "start_date": "2014-11-28T19:37:00Z",
        "start_date_local": "2014-11-28T12:37:00Z",
        "is_kom": false
    },
    "starred_date": "2018-06-04T16:26:12Z"
}
